header: 
  seq: 167475
  stamp: 
    secs: 1556602972
    nsecs: 227971072
  frame_id: "/gps"
sentence: "$GPGGA,054252.227,0.105311,N,0.098202,E,1,10,0.01,10.202513,M,0.000000,M,,*5F"
---
header: 
  seq: 167476
  stamp: 
    secs: 1556602972
    nsecs: 228038144
  frame_id: "/gps"
sentence: "QQ02C,INSATT,V,054252.227,-0.156,-0.012,181.983,@16"
---
header: 
  seq: 167477
  stamp: 
    secs: 1556602972
    nsecs: 314551040
  frame_id: "/gps"
sentence: "$GPGGA,054252.314,0.105311,N,0.098202,E,1,10,0.01,10.202513,M,0.000000,M,,*5E"
---
header: 
  seq: 167478
  stamp: 
    secs: 1556602972
    nsecs: 314617088
  frame_id: "/gps"
sentence: "QQ02C,INSATT,V,054252.314,-0.156,-0.012,181.983,@17"
---
header: 
  seq: 167479
  stamp: 
    secs: 1556602972
    nsecs: 398843136
  frame_id: "/gps"
sentence: "$GPGGA,054252.398,0.105311,N,0.098202,E,1,10,0.01,10.202513,M,0.000000,M,,*5A"
---
header: 
  seq: 167480
  stamp: 
    secs: 1556602972
    nsecs: 398907904
  frame_id: "/gps"
sentence: "QQ02C,INSATT,V,054252.398,-0.156,-0.012,181.983,@13"
---
header: 
  seq: 167481
  stamp: 
    secs: 1556602972
    nsecs: 485421056
  frame_id: "/gps"
sentence: "$GPGGA,054252.485,0.105311,N,0.098202,E,1,10,0.01,10.202513,M,0.000000,M,,*51"
---
header: 
  seq: 167482
  stamp: 
    secs: 1556602972
    nsecs: 485488128
  frame_id: "/gps"
sentence: "QQ02C,INSATT,V,054252.485,-0.156,-0.012,181.983,@18"
---
header: 
  seq: 167483
  stamp: 
    secs: 1556602972
    nsecs: 568528128
  frame_id: "/gps"
sentence: "$GPGGA,054252.568,0.105311,N,0.098202,E,1,10,0.01,10.202513,M,0.000000,M,,*53"
---
header: 
  seq: 167484
  stamp: 
    secs: 1556602972
    nsecs: 568592128
  frame_id: "/gps"
sentence: "QQ02C,INSATT,V,054252.568,-0.156,-0.012,181.983,@1A"
---
header: 
  seq: 167485
  stamp: 
    secs: 1556602972
    nsecs: 653683968
  frame_id: "/gps"
sentence: "$GPGGA,054252.653,0.105311,N,0.098202,E,1,10,0.01,10.202513,M,0.000000,M,,*58"
---
header: 
  seq: 167486
  stamp: 
    secs: 1556602972
    nsecs: 653748992
  frame_id: "/gps"
sentence: "QQ02C,INSATT,V,054252.653,-0.156,-0.012,181.983,@11"
---
header: 
  seq: 167487
  stamp: 
    secs: 1556602972
    nsecs: 738718976
  frame_id: "/gps"
sentence: "$GPGGA,054252.738,0.105311,N,0.098202,E,1,10,0.01,10.202513,M,0.000000,M,,*54"
---
header: 
  seq: 167488
  stamp: 
    secs: 1556602972
    nsecs: 738788096
  frame_id: "/gps"
sentence: "QQ02C,INSATT,V,054252.738,-0.156,-0.012,181.983,@1D"
---
header: 
  seq: 167489
  stamp: 
    secs: 1556602972
    nsecs: 823109120
  frame_id: "/gps"
sentence: "$GPGGA,054252.823,0.105311,N,0.098202,E,1,10,0.01,10.202513,M,0.000000,M,,*51"
---
header: 
  seq: 167490
  stamp: 
    secs: 1556602972
    nsecs: 823173120
  frame_id: "/gps"
sentence: "QQ02C,INSATT,V,054252.823,-0.156,-0.012,181.983,@18"
---
header: 
  seq: 167491
  stamp: 
    secs: 1556602972
    nsecs: 910711296
  frame_id: "/gps"
sentence: "$GPGGA,054252.910,0.105311,N,0.098202,E,1,10,0.01,10.202513,M,0.000000,M,,*50"
---
header: 
  seq: 167492
  stamp: 
    secs: 1556602972
    nsecs: 910776064
  frame_id: "/gps"
sentence: "QQ02C,INSATT,V,054252.910,-0.156,-0.012,181.983,@19"
---
header: 
  seq: 167493
  stamp: 
    secs: 1556602972
    nsecs: 994452224
  frame_id: "/gps"
sentence: "$GPGGA,054252.994,0.105311,N,0.098202,E,1,10,0.01,10.202513,M,0.000000,M,,*5C"
---
header: 
  seq: 167494
  stamp: 
    secs: 1556602972
    nsecs: 994521856
  frame_id: "/gps"
sentence: "QQ02C,INSATT,V,054252.994,-0.156,-0.012,181.983,@15"
---
header: 
  seq: 167495
  stamp: 
    secs: 1556602973
    nsecs:  77412096
  frame_id: "/gps"
sentence: "$GPGGA,054253.077,0.105311,N,0.098202,E,1,10,0.01,10.202513,M,0.000000,M,,*59"
---
header: 
  seq: 167496
  stamp: 
    secs: 1556602973
    nsecs:  77477120
  frame_id: "/gps"
sentence: "QQ02C,INSATT,V,054253.077,-0.156,-0.012,181.983,@10"
---
header: 
  seq: 167497
  stamp: 
    secs: 1556602973
    nsecs: 160471296
  frame_id: "/gps"
sentence: "$GPGGA,054253.160,0.105311,N,0.098202,E,1,10,0.01,10.202513,M,0.000000,M,,*5E"
---
header: 
  seq: 167498
  stamp: 
    secs: 1556602973
    nsecs: 160536064
  frame_id: "/gps"
sentence: "QQ02C,INSATT,V,054253.160,-0.156,-0.012,181.983,@17"
---
header: 
  seq: 167499
  stamp: 
    secs: 1556602973
    nsecs: 247206912
  frame_id: "/gps"
sentence: "$GPGGA,054253.247,0.105311,N,0.098202,E,1,10,0.01,10.202513,M,0.000000,M,,*58"
---
header: 
  seq: 167500
  stamp: 
    secs: 1556602973
    nsecs: 247270912
  frame_id: "/gps"
sentence: "QQ02C,INSATT,V,054253.247,-0.156,-0.012,181.983,@11"
---
header: 
  seq: 167501
  stamp: 
    secs: 1556602973
    nsecs: 333699072
  frame_id: "/gps"
sentence: "$GPGGA,054253.333,0.105311,N,0.098202,E,1,10,0.01,10.202513,M,0.000000,M,,*5A"
---
header: 
  seq: 167502
  stamp: 
    secs: 1556602973
    nsecs: 333765120
  frame_id: "/gps"
sentence: "QQ02C,INSATT,V,054253.333,-0.156,-0.012,181.983,@13"
---
header: 
  seq: 167503
  stamp: 
    secs: 1556602973
    nsecs: 419614976
  frame_id: "/gps"
sentence: "$GPGGA,054253.419,0.105311,N,0.098202,E,1,10,0.01,10.202513,M,0.000000,M,,*55"
---
header: 
  seq: 167504
  stamp: 
    secs: 1556602973
    nsecs: 419681280
  frame_id: "/gps"
sentence: "QQ02C,INSATT,V,054253.419,-0.156,-0.012,181.983,@1C"
---
header: 
  seq: 167505
  stamp: 
    secs: 1556602973
    nsecs: 507962112
  frame_id: "/gps"
sentence: "$GPGGA,054253.507,0.105311,N,0.098202,E,1,10,0.01,10.202513,M,0.000000,M,,*5B"
---
header: 
  seq: 167506
  stamp: 
    secs: 1556602973
    nsecs: 508028928
  frame_id: "/gps"
sentence: "QQ02C,INSATT,V,054253.507,-0.156,-0.012,181.983,@12"
---
header: 
  seq: 167507
  stamp: 
    secs: 1556602973
    nsecs: 592432128
  frame_id: "/gps"
sentence: "$GPGGA,054253.592,0.105311,N,0.098202,E,1,10,0.01,10.202513,M,0.000000,M,,*57"
---
header: 
  seq: 167508
  stamp: 
    secs: 1556602973
    nsecs: 592497920
  frame_id: "/gps"
sentence: "QQ02C,INSATT,V,054253.592,-0.156,-0.012,181.983,@1E"
---
header: 
  seq: 167509
  stamp: 
    secs: 1556602973
    nsecs: 689862912
  frame_id: "/gps"
sentence: "$GPGGA,054253.689,0.105311,N,0.098202,E,1,10,0.01,10.202514,M,0.000000,M,,*59"
---
header: 
  seq: 167510
  stamp: 
    secs: 1556602973
    nsecs: 689927936
  frame_id: "/gps"
sentence: "QQ02C,INSATT,V,054253.689,-0.156,-0.012,181.983,@17"
---
header: 
  seq: 167511
  stamp: 
    secs: 1556602973
    nsecs: 780264192
  frame_id: "/gps"
sentence: "$GPGGA,054253.780,0.105311,N,0.098202,E,1,10,0.01,10.202514,M,0.000000,M,,*51"
---
header: 
  seq: 167512
  stamp: 
    secs: 1556602973
    nsecs: 780329216
  frame_id: "/gps"
sentence: "QQ02C,INSATT,V,054253.780,-0.156,-0.011,181.983,@1C"
---
header: 
  seq: 167513
  stamp: 
    secs: 1556602973
    nsecs: 863878144
  frame_id: "/gps"
sentence: "$GPGGA,054253.863,0.105300,N,0.098202,E,1,10,0.01,10.202503,M,0.000000,M,,*55"
---
header: 
  seq: 167514
  stamp: 
    secs: 1556602973
    nsecs: 863943168
  frame_id: "/gps"
sentence: "QQ02C,INSATT,V,054253.863,-0.154,-359.969,181.962,@1A"
---
header: 
  seq: 167515
  stamp: 
    secs: 1556602973
    nsecs: 951198976
  frame_id: "/gps"
sentence: "$GPGGA,054253.951,0.105267,N,0.098201,E,1,10,0.01,10.202467,M,0.000000,M,,*55"
---
header: 
  seq: 167516
  stamp: 
    secs: 1556602973
    nsecs: 951267072
  frame_id: "/gps"
sentence: "QQ02C,INSATT,V,054253.951,-0.149,-359.902,181.909,@16"
---
header: 
  seq: 167517
  stamp: 
    secs: 1556602974
    nsecs:  38164992
  frame_id: "/gps"
sentence: "$GPGGA,054254.038,0.105214,N,0.098201,E,1,10,0.01,10.202418,M,0.000000,M,,*58"
---
header: 
  seq: 167518
  stamp: 
    secs: 1556602974
    nsecs:  38230016
  frame_id: "/gps"
sentence: "QQ02C,INSATT,V,054254.038,-0.144,-359.842,181.823,@16"
---
header: 
  seq: 167519
  stamp: 
    secs: 1556602974
    nsecs: 127802112
  frame_id: "/gps"
sentence: "$GPGGA,054254.127,0.105137,N,0.098200,E,1,10,0.01,10.202375,M,0.000000,M,,*58"
---
header: 
  seq: 167520
  stamp: 
    secs: 1556602974
    nsecs: 127867136
  frame_id: "/gps"
sentence: "QQ02C,INSATT,V,054254.127,-0.140,-359.797,181.706,@12"
---
header: 
  seq: 167521
  stamp: 
    secs: 1556602974
    nsecs: 214789120
  frame_id: "/gps"
sentence: "$GPGGA,054254.214,0.105040,N,0.098199,E,1,10,0.01,10.202334,M,0.000000,M,,*5C"
---
header: 
  seq: 167522
  stamp: 
    secs: 1556602974
    nsecs: 214852096
  frame_id: "/gps"
sentence: "QQ02C,INSATT,V,054254.214,-0.136,-359.767,181.567,@1A"
---
header: 
  seq: 167523
  stamp: 
    secs: 1556602974
    nsecs: 301902080
  frame_id: "/gps"
sentence: "$GPGGA,054254.301,0.104919,N,0.098198,E,1,10,0.01,10.202302,M,0.000000,M,,*59"
---
header: 
  seq: 167524
  stamp: 
    secs: 1556602974
    nsecs: 301966080
  frame_id: "/gps"
sentence: "QQ02C,INSATT,V,054254.301,-0.133,-359.747,181.407,@1F"
---
header: 
  seq: 167525
  stamp: 
    secs: 1556602974
    nsecs: 389545216
  frame_id: "/gps"
sentence: "$GPGGA,054254.389,0.104775,N,0.098197,E,1,10,0.01,10.202269,M,0.000000,M,,*5E"
---
header: 
  seq: 167526
  stamp: 
    secs: 1556602974
    nsecs: 389613056
  frame_id: "/gps"
sentence: "QQ02C,INSATT,V,054254.389,-0.129,-359.735,181.220,@12"
---
header: 
  seq: 167527
  stamp: 
    secs: 1556602974
    nsecs: 489411072
  frame_id: "/gps"
sentence: "$GPGGA,054254.489,0.104581,N,0.098196,E,1,10,0.01,10.202227,M,0.000000,M,,*5B"
---
header: 
  seq: 167528
  stamp: 
    secs: 1556602974
    nsecs: 489475072
  frame_id: "/gps"
sentence: "QQ02C,INSATT,V,054254.489,-0.128,-359.725,181.013,@17"
---
header: 
  seq: 167529
  stamp: 
    secs: 1556602974
    nsecs: 580409088
  frame_id: "/gps"
sentence: "$GPGGA,054254.580,0.104376,N,0.098195,E,1,10,0.01,10.202183,M,0.000000,M,,*53"
---
header: 
  seq: 167530
  stamp: 
    secs: 1556602974
    nsecs: 580475136
  frame_id: "/gps"
sentence: "QQ02C,INSATT,V,054254.580,-0.127,-359.718,180.824,@13"
---
header: 
  seq: 167531
  stamp: 
    secs: 1556602974
    nsecs: 664083968
  frame_id: "/gps"
sentence: "$GPGGA,054254.664,0.104164,N,0.098194,E,1,10,0.01,10.202136,M,0.000000,M,,*54"
---
header: 
  seq: 167532
  stamp: 
    secs: 1556602974
    nsecs: 664150272
  frame_id: "/gps"
sentence: "QQ02C,INSATT,V,054254.664,-0.126,-359.713,180.656,@1B"
---
header: 
  seq: 167533
  stamp: 
    secs: 1556602974
    nsecs: 750604032
  frame_id: "/gps"
sentence: "$GPGGA,054254.750,0.103921,N,0.098193,E,1,10,0.01,10.202100,M,0.000000,M,,*5E"
---
header: 
  seq: 167534
  stamp: 
    secs: 1556602974
    nsecs: 750670080
  frame_id: "/gps"
sentence: "QQ02C,INSATT,V,054254.750,-0.128,-359.715,180.512,@16"
---
header: 
  seq: 167535
  stamp: 
    secs: 1556602974
    nsecs: 837943040
  frame_id: "/gps"
sentence: "$GPGGA,054254.837,0.103659,N,0.098192,E,1,10,0.01,10.202051,M,0.000000,M,,*54"
---
header: 
  seq: 167536
  stamp: 
    secs: 1556602974
    nsecs: 838008064
  frame_id: "/gps"
sentence: "QQ02C,INSATT,V,054254.837,-0.133,-359.735,180.411,@12"
---
header: 
  seq: 167537
  stamp: 
    secs: 1556602974
    nsecs: 938331904
  frame_id: "/gps"
sentence: "$GPGGA,054254.938,0.103352,N,0.098189,E,1,10,0.01,10.202017,M,0.000000,M,,*5C"
---
header: 
  seq: 167538
  stamp: 
    secs: 1556602974
    nsecs: 938400256
  frame_id: "/gps"
sentence: "QQ02C,INSATT,V,054254.938,-0.160,-359.808,180.489,@1A"
---
header: 
  seq: 167539
  stamp: 
    secs: 1556602975
    nsecs:  23702272
  frame_id: "/gps"
sentence: "$GPGGA,054255.023,0.103094,N,0.098183,E,1,10,0.01,10.202024,M,0.000000,M,,*5D"
---
header: 
  seq: 167540
  stamp: 
    secs: 1556602975
    nsecs:  23766016
  frame_id: "/gps"
sentence: "QQ02C,INSATT,V,054255.023,-0.191,-359.886,180.734,@15"
---
header: 
  seq: 167541
  stamp: 
    secs: 1556602975
    nsecs: 118878208
  frame_id: "/gps"
sentence: "$GPGGA,054255.118,0.102816,N,0.098175,E,1,10,0.01,10.202054,M,0.000000,M,,*59"
---
header: 
  seq: 167542
  stamp: 
    secs: 1556602975
    nsecs: 119022080
  frame_id: "/gps"
sentence: "QQ02C,INSATT,V,054255.118,-0.227,-359.953,181.122,@1B"
---
header: 
  seq: 167543
  stamp: 
    secs: 1556602975
    nsecs: 200160256
  frame_id: "/gps"
sentence: "$GPGGA,054255.200,0.102564,N,0.098162,E,1,10,0.01,10.202078,M,0.000000,M,,*53"
---
header: 
  seq: 167544
  stamp: 
    secs: 1556602975
    nsecs: 200223232
  frame_id: "/gps"
sentence: "QQ02C,INSATT,V,054255.200,-0.271,-359.988,181.687,@1C"
---
header: 
  seq: 167545
  stamp: 
    secs: 1556602975
    nsecs: 302248960
  frame_id: "/gps"
sentence: "$GPGGA,054255.302,0.102259,N,0.098141,E,1,10,0.01,10.202095,M,0.000000,M,,*5B"
---
header: 
  seq: 167546
  stamp: 
    secs: 1556602975
    nsecs: 302315264
  frame_id: "/gps"
sentence: "QQ02C,INSATT,V,054255.302,-0.331,-0.008,182.620,@1A"
---
header: 
  seq: 167547
  stamp: 
    secs: 1556602975
    nsecs: 393552896
  frame_id: "/gps"
sentence: "$GPGGA,054255.393,0.101986,N,0.098113,E,1,10,0.01,10.202097,M,0.000000,M,,*5C"
---
header: 
  seq: 167548
  stamp: 
    secs: 1556602975
    nsecs: 393617152
  frame_id: "/gps"
sentence: "QQ02C,INSATT,V,054255.393,-0.394,-0.014,183.767,@13"
---
header: 
  seq: 167549
  stamp: 
    secs: 1556602975
    nsecs: 494305280
  frame_id: "/gps"
sentence: "$GPGGA,054255.494,0.101687,N,0.098072,E,1,10,0.01,10.202092,M,0.000000,M,,*51"
---
header: 
  seq: 167550
  stamp: 
    secs: 1556602975
    nsecs: 494370048
  frame_id: "/gps"
sentence: "QQ02C,INSATT,V,054255.494,-0.470,-0.017,185.343,@19"
---
header: 
  seq: 167551
  stamp: 
    secs: 1556602975
    nsecs: 617165056
  frame_id: "/gps"
sentence: "$GPGGA,054255.617,0.101328,N,0.098004,E,1,10,0.01,10.202086,M,0.000000,M,,*5C"
---
header: 
  seq: 167552
  stamp: 
    secs: 1556602975
    nsecs: 617242112
  frame_id: "/gps"
sentence: "QQ02C,INSATT,V,054255.617,-0.578,-0.019,187.829,@12"
---
header: 
  seq: 167553
  stamp: 
    secs: 1556602975
    nsecs: 716666112
  frame_id: "/gps"
sentence: "$GPGGA,054255.716,0.101038,N,0.097931,E,1,10,0.01,10.202083,M,0.000000,M,,*5B"
---
header: 
  seq: 167554
  stamp: 
    secs: 1556602975
    nsecs: 716736000
  frame_id: "/gps"
sentence: "QQ02C,INSATT,V,054255.716,-0.662,-0.021,190.248,@1A"
---
header: 
  seq: 167555
  stamp: 
    secs: 1556602975
    nsecs: 802790144
  frame_id: "/gps"
sentence: "$GPGGA,054255.802,0.100792,N,0.097854,E,1,10,0.01,10.202081,M,0.000000,M,,*57"
---
header: 
  seq: 167556
  stamp: 
    secs: 1556602975
    nsecs: 802855936
  frame_id: "/gps"
sentence: "QQ02C,INSATT,V,054255.802,-0.748,-0.025,192.730,@15"
---
header: 
  seq: 167557
  stamp: 
    secs: 1556602975
    nsecs: 888835072
  frame_id: "/gps"
sentence: "$GPGGA,054255.888,0.100552,N,0.097762,E,1,10,0.01,10.202080,M,0.000000,M,,*50"
---
header: 
  seq: 167558
  stamp: 
    secs: 1556602975
    nsecs: 888899072
  frame_id: "/gps"
sentence: "QQ02C,INSATT,V,054255.888,-0.831,-0.028,195.472,@19"
---
header: 
  seq: 167559
  stamp: 
    secs: 1556602975
    nsecs: 976779008
  frame_id: "/gps"
sentence: "$GPGGA,054255.976,0.100314,N,0.097653,E,1,10,0.01,10.202080,M,0.000000,M,,*57"
---
header: 
  seq: 167560
  stamp: 
    secs: 1556602975
    nsecs: 976845056
  frame_id: "/gps"
sentence: "QQ02C,INSATT,V,054255.976,-0.927,-0.033,198.670,@18"
---
header: 
  seq: 167561
  stamp: 
    secs: 1556602976
    nsecs:  60635136
  frame_id: "/gps"
sentence: "$GPGGA,054256.060,0.100094,N,0.097533,E,1,10,0.01,10.202076,M,0.000000,M,,*5D"
---
header: 
  seq: 167562
  stamp: 
    secs: 1556602976
    nsecs:  60706048
  frame_id: "/gps"
sentence: "QQ02C,INSATT,V,054256.060,-1.003,-0.036,201.946,@17"
---
header: 
  seq: 167563
  stamp: 
    secs: 1556602976
    nsecs: 147956992
  frame_id: "/gps"
sentence: "$GPGGA,054256.147,0.099873,N,0.097394,E,1,10,0.01,10.202070,M,0.000000,M,,*54"
---
header: 
  seq: 167564
  stamp: 
    secs: 1556602976
    nsecs: 148027136
  frame_id: "/gps"
sentence: "QQ02C,INSATT,V,054256.147,-1.054,-0.037,205.436,@1E"
---
header: 
  seq: 167565
  stamp: 
    secs: 1556602976
    nsecs: 231338240
  frame_id: "/gps"
sentence: "$GPGGA,054256.231,0.099671,N,0.097248,E,1,10,0.01,10.202064,M,0.000000,M,,*5F"
---
header: 
  seq: 167566
  stamp: 
    secs: 1556602976
    nsecs: 231403008
  frame_id: "/gps"
sentence: "QQ02C,INSATT,V,054256.231,-1.086,-0.039,208.820,@1B"
---
header: 
  seq: 167567
  stamp: 
    secs: 1556602976
    nsecs: 321772032
  frame_id: "/gps"
sentence: "$GPGGA,054256.321,0.099461,N,0.097077,E,1,10,0.01,10.202057,M,0.000000,M,,*52"
---
header: 
  seq: 167568
  stamp: 
    secs: 1556602976
    nsecs: 321838080
  frame_id: "/gps"
sentence: "QQ02C,INSATT,V,054256.321,-1.105,-0.042,212.527,@1C"
---
header: 
  seq: 167569
  stamp: 
    secs: 1556602976
    nsecs: 411404032
  frame_id: "/gps"
sentence: "$GPGGA,054256.411,0.099263,N,0.096893,E,1,10,0.01,10.202053,M,0.000000,M,,*55"
---
header: 
  seq: 167570
  stamp: 
    secs: 1556602976
    nsecs: 411470080
  frame_id: "/gps"
sentence: "QQ02C,INSATT,V,054256.411,-1.107,-0.047,216.192,@11"
---
header: 
  seq: 167571
  stamp: 
    secs: 1556602976
    nsecs: 499456000
  frame_id: "/gps"
sentence: "$GPGGA,054256.499,0.099080,N,0.096701,E,1,10,0.01,10.202051,M,0.000000,M,,*5C"
---
header: 
  seq: 167572
  stamp: 
    secs: 1556602976
    nsecs: 499521024
  frame_id: "/gps"
sentence: "QQ02C,INSATT,V,054256.499,-1.098,-0.051,219.735,@15"
---
header: 
  seq: 167573
  stamp: 
    secs: 1556602976
    nsecs: 586402048
  frame_id: "/gps"
sentence: "$GPGGA,054256.586,0.098911,N,0.096502,E,1,10,0.01,10.202050,M,0.000000,M,,*53"
---
header: 
  seq: 167574
  stamp: 
    secs: 1556602976
    nsecs: 586466048
  frame_id: "/gps"
sentence: "QQ02C,INSATT,V,054256.586,-1.083,-0.054,223.173,@18"
---
header: 
  seq: 167575
  stamp: 
    secs: 1556602976
    nsecs: 675571968
  frame_id: "/gps"
sentence: "$GPGGA,054256.675,0.098749,N,0.096289,E,1,10,0.01,10.202051,M,0.000000,M,,*5A"
---
header: 
  seq: 167576
  stamp: 
    secs: 1556602976
    nsecs: 675640064
  frame_id: "/gps"
sentence: "QQ02C,INSATT,V,054256.675,-1.058,-0.055,226.590,@1C"
---
header: 
  seq: 167577
  stamp: 
    secs: 1556602976
    nsecs: 760664064
  frame_id: "/gps"
sentence: "$GPGGA,054256.760,0.098605,N,0.096076,E,1,10,0.01,10.202053,M,0.000000,M,,*56"
---
header: 
  seq: 167578
  stamp: 
    secs: 1556602976
    nsecs: 760735232
  frame_id: "/gps"
sentence: "QQ02C,INSATT,V,054256.760,-1.032,-0.054,229.777,@10"
---
header: 
  seq: 167579
  stamp: 
    secs: 1556602976
    nsecs: 852172032
  frame_id: "/gps"
sentence: "$GPGGA,054256.852,0.098462,N,0.095841,E,1,10,0.01,10.202052,M,0.000000,M,,*55"
---
header: 
  seq: 167580
  stamp: 
    secs: 1556602976
    nsecs: 852236032
  frame_id: "/gps"
sentence: "QQ02C,INSATT,V,054256.852,-0.992,-0.052,233.031,@14"
---
header: 
  seq: 167581
  stamp: 
    secs: 1556602976
    nsecs: 944135936
  frame_id: "/gps"
sentence: "$GPGGA,054256.944,0.098328,N,0.095599,E,1,10,0.01,10.202052,M,0.000000,M,,*52"
---
header: 
  seq: 167582
  stamp: 
    secs: 1556602976
    nsecs: 944203008
  frame_id: "/gps"
sentence: "QQ02C,INSATT,V,054256.944,-0.932,-0.049,236.000,@15"
---
header: 
  seq: 167583
  stamp: 
    secs: 1556602977
    nsecs:  30921216
  frame_id: "/gps"
sentence: "$GPGGA,054257.030,0.098211,N,0.095366,E,1,10,0.01,10.202053,M,0.000000,M,,*55"
---
header: 
  seq: 167584
  stamp: 
    secs: 1556602977
    nsecs:  30985984
  frame_id: "/gps"
sentence: "QQ02C,INSATT,V,054257.030,-0.873,-0.046,238.571,@18"
---
header: 
  seq: 167585
  stamp: 
    secs: 1556602977
    nsecs: 128071936
  frame_id: "/gps"
sentence: "$GPGGA,054257.128,0.098090,N,0.095101,E,1,10,0.01,10.202057,M,0.000000,M,,*51"
---
header: 
  seq: 167586
  stamp: 
    secs: 1556602977
    nsecs: 128135936
  frame_id: "/gps"
sentence: "QQ02C,INSATT,V,054257.128,-0.817,-0.044,241.294,@12"
---
header: 
  seq: 167587
  stamp: 
    secs: 1556602977
    nsecs: 222005248
  frame_id: "/gps"
sentence: "$GPGGA,054257.221,0.097984,N,0.094840,E,1,10,0.01,10.202060,M,0.000000,M,,*51"
---
header: 
  seq: 167588
  stamp: 
    secs: 1556602977
    nsecs: 222071040
  frame_id: "/gps"
sentence: "QQ02C,INSATT,V,054257.221,-0.767,-0.042,243.751,@18"
---
header: 
  seq: 167589
  stamp: 
    secs: 1556602977
    nsecs: 315926016
  frame_id: "/gps"
sentence: "$GPGGA,054257.315,0.097886,N,0.094576,E,1,10,0.01,10.202064,M,0.000000,M,,*58"
---
header: 
  seq: 167590
  stamp: 
    secs: 1556602977
    nsecs: 315995136
  frame_id: "/gps"
sentence: "QQ02C,INSATT,V,054257.315,-0.723,-0.039,246.044,@14"
---
header: 
  seq: 167591
  stamp: 
    secs: 1556602977
    nsecs: 411746048
  frame_id: "/gps"
sentence: "$GPGGA,054257.411,0.097796,N,0.094303,E,1,10,0.01,10.202065,M,0.000000,M,,*50"
---
header: 
  seq: 167592
  stamp: 
    secs: 1556602977
    nsecs: 411812864
  frame_id: "/gps"
sentence: "QQ02C,INSATT,V,054257.411,-0.679,-0.036,248.209,@13"
---
header: 
  seq: 167593
  stamp: 
    secs: 1556602977
    nsecs: 505976064
  frame_id: "/gps"
sentence: "$GPGGA,054257.505,0.097715,N,0.094032,E,1,10,0.01,10.202065,M,0.000000,M,,*5E"
---
header: 
  seq: 167594
  stamp: 
    secs: 1556602977
    nsecs: 506040064
  frame_id: "/gps"
sentence: "QQ02C,INSATT,V,054257.505,-0.642,-0.032,250.194,@15"
---
header: 
  seq: 167595
  stamp: 
    secs: 1556602977
    nsecs: 601404160
  frame_id: "/gps"
sentence: "$GPGGA,054257.601,0.097642,N,0.093756,E,1,10,0.01,10.202066,M,0.000000,M,,*5B"
---
header: 
  seq: 167596
  stamp: 
    secs: 1556602977
    nsecs: 601468928
  frame_id: "/gps"
sentence: "QQ02C,INSATT,V,054257.601,-0.610,-0.029,252.095,@1D"
---
header: 
  seq: 167597
  stamp: 
    secs: 1556602977
    nsecs: 699834112
  frame_id: "/gps"
sentence: "$GPGGA,054257.699,0.097573,N,0.093469,E,1,10,0.01,10.202066,M,0.000000,M,,*54"
---
header: 
  seq: 167598
  stamp: 
    secs: 1556602977
    nsecs: 699898112
  frame_id: "/gps"
sentence: "QQ02C,INSATT,V,054257.699,-0.576,-0.027,253.895,@18"
---
header: 
  seq: 167599
  stamp: 
    secs: 1556602977
    nsecs: 825006080
  frame_id: "/gps"
sentence: "$GPGGA,054257.824,0.097496,N,0.093104,E,1,10,0.01,10.202068,M,0.000000,M,,*56"
---
header: 
  seq: 167600
  stamp: 
    secs: 1556602977
    nsecs: 825073920
  frame_id: "/gps"
sentence: "QQ02C,INSATT,V,054257.824,-0.524,-0.023,255.879,@17"
---
header: 
  seq: 167601
  stamp: 
    secs: 1556602977
    nsecs: 907980032
  frame_id: "/gps"
sentence: "$GPGGA,054257.907,0.097450,N,0.092859,E,1,10,0.01,10.202069,M,0.000000,M,,*5D"
---
header: 
  seq: 167602
  stamp: 
    secs: 1556602977
    nsecs: 908044288
  frame_id: "/gps"
sentence: "QQ02C,INSATT,V,054257.907,-0.494,-0.022,257.075,@1A"
---
header: 
  seq: 167603
  stamp: 
    secs: 1556602978
    nsecs:   6468096
  frame_id: "/gps"
sentence: "$GPGGA,054258.006,0.097400,N,0.092569,E,1,10,0.01,10.202070,M,0.000000,M,,*59"
---
header: 
  seq: 167604
  stamp: 
    secs: 1556602978
    nsecs:   6532864
  frame_id: "/gps"
sentence: "QQ02C,INSATT,V,054258.006,-0.462,-0.020,258.379,@16"
---
header: 
  seq: 167605
  stamp: 
    secs: 1556602978
    nsecs: 104565248
  frame_id: "/gps"
sentence: "$GPGGA,054258.104,0.097356,N,0.092278,E,1,10,0.01,10.202072,M,0.000000,M,,*5B"
---
header: 
  seq: 167606
  stamp: 
    secs: 1556602978
    nsecs: 104630016
  frame_id: "/gps"
sentence: "QQ02C,INSATT,V,054258.104,-0.433,-0.019,259.561,@15"
---
header: 
  seq: 167607
  stamp: 
    secs: 1556602978
    nsecs: 201776128
  frame_id: "/gps"
sentence: "$GPGGA,054258.201,0.097317,N,0.091991,E,1,10,0.01,10.202072,M,0.000000,M,,*57"
---
header: 
  seq: 167608
  stamp: 
    secs: 1556602978
    nsecs: 201841920
  frame_id: "/gps"
sentence: "QQ02C,INSATT,V,054258.201,-0.406,-0.018,260.612,@19"
---
header: 
  seq: 167609
  stamp: 
    secs: 1556602978
    nsecs: 300342016
  frame_id: "/gps"
sentence: "$GPGGA,054258.300,0.097280,N,0.091698,E,1,10,0.01,10.202073,M,0.000000,M,,*5F"
---
header: 
  seq: 167610
  stamp: 
    secs: 1556602978
    nsecs: 300408064
  frame_id: "/gps"
sentence: "QQ02C,INSATT,V,054258.300,-0.379,-0.017,261.552,@1F"
---
header: 
  seq: 167611
  stamp: 
    secs: 1556602978
    nsecs: 384434176
  frame_id: "/gps"
sentence: "$GPGGA,054258.384,0.097252,N,0.091448,E,1,10,0.01,10.202075,M,0.000000,M,,*55"
---
header: 
  seq: 167612
  stamp: 
    secs: 1556602978
    nsecs: 384498944
  frame_id: "/gps"
sentence: "QQ02C,INSATT,V,054258.384,-0.358,-0.016,262.272,@17"
---
header: 
  seq: 167613
  stamp: 
    secs: 1556602978
    nsecs: 492955136
  frame_id: "/gps"
sentence: "$GPGGA,054258.492,0.097220,N,0.091126,E,1,10,0.01,10.202075,M,0.000000,M,,*5D"
---
header: 
  seq: 167614
  stamp: 
    secs: 1556602978
    nsecs: 493023232
  frame_id: "/gps"
sentence: "QQ02C,INSATT,V,054258.492,-0.336,-0.015,263.123,@1A"
---
header: 
  seq: 167615
  stamp: 
    secs: 1556602978
    nsecs: 592861952
  frame_id: "/gps"
sentence: "$GPGGA,054258.592,0.097193,N,0.090828,E,1,10,0.01,10.202076,M,0.000000,M,,*52"
---
header: 
  seq: 167616
  stamp: 
    secs: 1556602978
    nsecs: 592930048
  frame_id: "/gps"
sentence: "QQ02C,INSATT,V,054258.592,-0.320,-0.014,263.844,@15"
---
header: 
  seq: 167617
  stamp: 
    secs: 1556602978
    nsecs: 722796032
  frame_id: "/gps"
sentence: "$GPGGA,054258.722,0.097163,N,0.090442,E,1,10,0.01,10.202076,M,0.000000,M,,*54"
---
header: 
  seq: 167618
  stamp: 
    secs: 1556602978
    nsecs: 722864896
  frame_id: "/gps"
sentence: "QQ02C,INSATT,V,054258.722,-0.302,-0.014,264.688,@15"
---
header: 
  seq: 167619
  stamp: 
    secs: 1556602978
    nsecs: 810131968
  frame_id: "/gps"
sentence: "$GPGGA,054258.810,0.097145,N,0.090182,E,1,10,0.01,10.202076,M,0.000000,M,,*57"
---
header: 
  seq: 167620
  stamp: 
    secs: 1556602978
    nsecs: 810196992
  frame_id: "/gps"
sentence: "QQ02C,INSATT,V,054258.810,-0.291,-0.013,265.200,@12"
---
header: 
  seq: 167621
  stamp: 
    secs: 1556602978
    nsecs: 913669120
  frame_id: "/gps"
sentence: "$GPGGA,054258.913,0.097126,N,0.089873,E,1,10,0.01,10.202077,M,0.000000,M,,*5E"
---
header: 
  seq: 167622
  stamp: 
    secs: 1556602978
    nsecs: 913734144
  frame_id: "/gps"
sentence: "QQ02C,INSATT,V,054258.913,-0.277,-0.013,265.738,@16"
---
header: 
  seq: 167623
  stamp: 
    secs: 1556602979
    nsecs:  14011904
  frame_id: "/gps"
sentence: "$GPGGA,054259.013,0.097110,N,0.089574,E,1,10,0.01,10.202077,M,0.000000,M,,*59"
---
header: 
  seq: 167624
  stamp: 
    secs: 1556602979
    nsecs:  14077184
  frame_id: "/gps"
sentence: "QQ02C,INSATT,V,054259.013,-0.264,-0.013,266.201,@10"
---
header: 
  seq: 167625
  stamp: 
    secs: 1556602979
    nsecs: 114802944
  frame_id: "/gps"
sentence: "$GPGGA,054259.114,0.097095,N,0.089273,E,1,10,0.01,10.202078,M,0.000000,M,,*5C"
---
header: 
  seq: 167626
  stamp: 
    secs: 1556602979
    nsecs: 114867200
  frame_id: "/gps"
sentence: "QQ02C,INSATT,V,054259.114,-0.255,-0.012,266.642,@16"
---
header: 
  seq: 167627
  stamp: 
    secs: 1556602979
    nsecs: 219403008
  frame_id: "/gps"
sentence: "$GPGGA,054259.219,0.097082,N,0.088962,E,1,10,0.01,10.202078,M,0.000000,M,,*5E"
---
header: 
  seq: 167628
  stamp: 
    secs: 1556602979
    nsecs: 219467008
  frame_id: "/gps"
sentence: "QQ02C,INSATT,V,054259.219,-0.247,-0.012,267.055,@1A"
---
header: 
  seq: 167629
  stamp: 
    secs: 1556602979
    nsecs: 323355904
  frame_id: "/gps"
sentence: "$GPGGA,054259.323,0.097071,N,0.088651,E,1,10,0.01,10.202079,M,0.000000,M,,*54"
---
header: 
  seq: 167630
  stamp: 
    secs: 1556602979
    nsecs: 323419136
  frame_id: "/gps"
sentence: "QQ02C,INSATT,V,054259.323,-0.236,-0.012,267.408,@18"
---
header: 
  seq: 167631
  stamp: 
    secs: 1556602979
    nsecs: 425723136
  frame_id: "/gps"
sentence: "$GPGGA,054259.425,0.097061,N,0.088346,E,1,10,0.01,10.202079,M,0.000000,M,,*57"
---
header: 
  seq: 167632
  stamp: 
    secs: 1556602979
    nsecs: 425789184
  frame_id: "/gps"
sentence: "QQ02C,INSATT,V,054259.425,-0.225,-0.012,267.705,@15"
---
header: 
  seq: 167633
  stamp: 
    secs: 1556602979
    nsecs: 515798016
  frame_id: "/gps"
sentence: "$GPGGA,054259.515,0.097053,N,0.088077,E,1,10,0.01,10.202079,M,0.000000,M,,*55"
---
header: 
  seq: 167634
  stamp: 
    secs: 1556602979
    nsecs: 515864064
  frame_id: "/gps"
sentence: "QQ02C,INSATT,V,054259.515,-0.217,-0.012,267.930,@1E"
---
header: 
  seq: 167635
  stamp: 
    secs: 1556602979
    nsecs: 599170048
  frame_id: "/gps"
sentence: "$GPGGA,054259.599,0.097046,N,0.087827,E,1,10,0.01,10.202080,M,0.000000,M,,*51"
---
header: 
  seq: 167636
  stamp: 
    secs: 1556602979
    nsecs: 599233280
  frame_id: "/gps"
sentence: "QQ02C,INSATT,V,054259.599,-0.211,-0.012,268.123,@19"
---
header: 
  seq: 167637
  stamp: 
    secs: 1556602979
    nsecs: 702019072
  frame_id: "/gps"
sentence: "$GPGGA,054259.701,0.097039,N,0.087520,E,1,10,0.01,10.202079,M,0.000000,M,,*56"
---
header: 
  seq: 167638
  stamp: 
    secs: 1556602979
    nsecs: 702083072
  frame_id: "/gps"
sentence: "QQ02C,INSATT,V,054259.701,-0.205,-0.012,268.341,@19"
---
header: 
  seq: 167639
  stamp: 
    secs: 1556602979
    nsecs: 806424064
  frame_id: "/gps"
sentence: "$GPGGA,054259.806,0.097032,N,0.087209,E,1,10,0.01,10.202079,M,0.000000,M,,*59"
---
header: 
  seq: 167640
  stamp: 
    secs: 1556602979
    nsecs: 806488064
  frame_id: "/gps"
sentence: "QQ02C,INSATT,V,054259.806,-0.197,-0.012,268.519,@12"
---
header: 
  seq: 167641
  stamp: 
    secs: 1556602979
    nsecs: 911663104
  frame_id: "/gps"
sentence: "$GPGGA,054259.911,0.097026,N,0.086895,E,1,10,0.01,10.202078,M,0.000000,M,,*54"
---
header: 
  seq: 167642
  stamp: 
    secs: 1556602979
    nsecs: 911730944
  frame_id: "/gps"
sentence: "QQ02C,INSATT,V,054259.911,-0.188,-0.012,268.648,@1C"
---
header: 
  seq: 167643
  stamp: 
    secs: 1556602980
    nsecs:  20708864
  frame_id: "/gps"
sentence: "$GPGGA,054300.020,0.097020,N,0.086583,E,1,10,0.01,10.202078,M,0.000000,M,,*5E"
---
header: 
  seq: 167644
  stamp: 
    secs: 1556602980
    nsecs:  20988160
  frame_id: "/gps"
sentence: "QQ02C,INSATT,V,054300.020,-0.183,-0.011,268.767,@1E"
---
header: 
  seq: 167645
  stamp: 
    secs: 1556602980
    nsecs: 107285248
  frame_id: "/gps"
sentence: "$GPGGA,054300.106,0.097016,N,0.086324,E,1,10,0.01,10.202078,M,0.000000,M,,*55"
---
header: 
  seq: 167646
  stamp: 
    secs: 1556602980
    nsecs: 107691264
  frame_id: "/gps"
sentence: "QQ02C,INSATT,V,054300.106,-0.182,-0.011,268.872,@11"
---
header: 
  seq: 167647
  stamp: 
    secs: 1556602980
    nsecs: 192424960
  frame_id: "/gps"
sentence: "$GPGGA,054300.192,0.097012,N,0.086057,E,1,10,0.01,10.202078,M,0.000000,M,,*5B"
---
header: 
  seq: 167648
  stamp: 
    secs: 1556602980
    nsecs: 192489984
  frame_id: "/gps"
sentence: "QQ02C,INSATT,V,054300.192,-0.182,-0.011,268.982,@12"
---
header: 
  seq: 167649
  stamp: 
    secs: 1556602980
    nsecs: 273851136
  frame_id: "/gps"
sentence: "$GPGGA,054300.273,0.097009,N,0.085813,E,1,10,0.01,10.202078,M,0.000000,M,,*56"
---
header: 
  seq: 167650
  stamp: 
    secs: 1556602980
    nsecs: 273916928
  frame_id: "/gps"
sentence: "QQ02C,INSATT,V,054300.273,-0.182,-0.011,269.080,@14"
---
header: 
  seq: 167651
  stamp: 
    secs: 1556602980
    nsecs: 377804032
  frame_id: "/gps"
sentence: "$GPGGA,054300.377,0.097005,N,0.085503,E,1,10,0.01,10.202079,M,0.000000,M,,*52"
---
header: 
  seq: 167652
  stamp: 
    secs: 1556602980
    nsecs: 377885952
  frame_id: "/gps"
sentence: "QQ02C,INSATT,V,054300.377,-0.182,-0.011,269.201,@1A"
---
header: 
  seq: 167653
  stamp: 
    secs: 1556602980
    nsecs: 474020096
  frame_id: "/gps"
sentence: "$GPGGA,054300.473,0.097003,N,0.085215,E,1,10,0.01,10.202079,M,0.000000,M,,*57"
---
header: 
  seq: 167654
  stamp: 
    secs: 1556602980
    nsecs: 474086144
  frame_id: "/gps"
sentence: "QQ02C,INSATT,V,054300.473,-0.182,-0.011,269.310,@18"
---
header: 
  seq: 167655
  stamp: 
    secs: 1556602980
    nsecs: 577838080
  frame_id: "/gps"
sentence: "$GPGGA,054300.577,0.097000,N,0.084906,E,1,10,0.01,10.202079,M,0.000000,M,,*59"
---
header: 
  seq: 167656
  stamp: 
    secs: 1556602980
    nsecs: 577903104
  frame_id: "/gps"
sentence: "QQ02C,INSATT,V,054300.577,-0.181,-0.011,269.423,@19"
---
header: 
  seq: 167657
  stamp: 
    secs: 1556602980
    nsecs: 684826112
  frame_id: "/gps"
sentence: "$GPGGA,054300.684,0.096998,N,0.084585,E,1,10,0.01,10.202079,M,0.000000,M,,*58"
---
header: 
  seq: 167658
  stamp: 
    secs: 1556602980
    nsecs: 684891136
  frame_id: "/gps"
sentence: "QQ02C,INSATT,V,054300.684,-0.178,-0.011,269.520,@12"
---
header: 
  seq: 167659
  stamp: 
    secs: 1556602980
    nsecs: 788154112
  frame_id: "/gps"
sentence: "$GPGGA,054300.788,0.096997,N,0.084278,E,1,10,0.01,10.202079,M,0.000000,M,,*5F"
---
header: 
  seq: 167660
  stamp: 
    secs: 1556602980
    nsecs: 788218112
  frame_id: "/gps"
sentence: "QQ02C,INSATT,V,054300.788,-0.174,-0.011,269.591,@19"
---
header: 
  seq: 167661
  stamp: 
    secs: 1556602980
    nsecs: 892856064
  frame_id: "/gps"
sentence: "$GPGGA,054300.892,0.096995,N,0.083965,E,1,10,0.01,10.202079,M,0.000000,M,,*59"
---
header: 
  seq: 167662
  stamp: 
    secs: 1556602980
    nsecs: 892922112
  frame_id: "/gps"
sentence: "QQ02C,INSATT,V,054300.892,-0.168,-0.011,269.632,@1A"
---
header: 
  seq: 167663
  stamp: 
    secs: 1556602980
    nsecs: 994412032
  frame_id: "/gps"
sentence: "$GPGGA,054300.994,0.096993,N,0.083661,E,1,10,0.01,10.202080,M,0.000000,M,,*55"
---
header: 
  seq: 167664
  stamp: 
    secs: 1556602980
    nsecs: 994477056
  frame_id: "/gps"
sentence: "QQ02C,INSATT,V,054300.994,-0.162,-0.011,269.640,@12"
---
header: 
  seq: 167665
  stamp: 
    secs: 1556602981
    nsecs:  98404096
  frame_id: "/gps"
sentence: "$GPGGA,054301.098,0.096991,N,0.083351,E,1,10,0.01,10.202080,M,0.000000,M,,*55"
---
header: 
  seq: 167666
  stamp: 
    secs: 1556602981
    nsecs:  98468096
  frame_id: "/gps"
sentence: "QQ02C,INSATT,V,054301.098,-0.156,-0.011,269.627,@10"
---
header: 
  seq: 167667
  stamp: 
    secs: 1556602981
    nsecs: 215521024
  frame_id: "/gps"
sentence: "$GPGGA,054301.215,0.096988,N,0.083002,E,1,10,0.01,10.202081,M,0.000000,M,,*5E"
---
header: 
  seq: 167668
  stamp: 
    secs: 1556602981
    nsecs: 215589120
  frame_id: "/gps"
sentence: "QQ02C,INSATT,V,054301.215,-0.151,-0.011,269.593,@1C"
---
header: 
  seq: 167669
  stamp: 
    secs: 1556602981
    nsecs: 298403072
  frame_id: "/gps"
sentence: "$GPGGA,054301.298,0.096986,N,0.082754,E,1,10,0.01,10.202080,M,0.000000,M,,*51"
---
header: 
  seq: 167670
  stamp: 
    secs: 1556602981
    nsecs: 298471168
  frame_id: "/gps"
sentence: "QQ02C,INSATT,V,054301.298,-0.148,-0.011,269.558,@16"
---
header: 
  seq: 167671
  stamp: 
    secs: 1556602981
    nsecs: 401155072
  frame_id: "/gps"
sentence: "$GPGGA,054301.401,0.096983,N,0.082447,E,1,10,0.01,10.202080,M,0.000000,M,,*53"
---
header: 
  seq: 167672
  stamp: 
    secs: 1556602981
    nsecs: 401220096
  frame_id: "/gps"
sentence: "QQ02C,INSATT,V,054301.401,-0.147,-0.011,269.515,@16"
---
header: 
  seq: 167673
  stamp: 
    secs: 1556602981
    nsecs: 504389120
  frame_id: "/gps"
sentence: "$GPGGA,054301.504,0.096980,N,0.082139,E,1,10,0.01,10.202080,M,0.000000,M,,*58"
---
header: 
  seq: 167674
  stamp: 
    secs: 1556602981
    nsecs: 504453120
  frame_id: "/gps"
sentence: "QQ02C,INSATT,V,054301.504,-0.148,-0.011,269.484,@14"
---
header: 
  seq: 167675
  stamp: 
    secs: 1556602981
    nsecs: 607362048
  frame_id: "/gps"
sentence: "$GPGGA,054301.607,0.096977,N,0.081832,E,1,10,0.01,10.202080,M,0.000000,M,,*51"
---
header: 
  seq: 167676
  stamp: 
    secs: 1556602981
    nsecs: 607428864
  frame_id: "/gps"
sentence: "QQ02C,INSATT,V,054301.607,-0.150,-0.011,269.467,@10"
---
header: 
  seq: 167677
  stamp: 
    secs: 1556602981
    nsecs: 744619264
  frame_id: "/gps"
sentence: "$GPGGA,054301.744,0.096973,N,0.081426,E,1,10,0.01,10.202080,M,0.000000,M,,*5A"
---
header: 
  seq: 167678
  stamp: 
    secs: 1556602981
    nsecs: 744738048
  frame_id: "/gps"
sentence: "QQ02C,INSATT,V,054301.744,-0.153,-0.011,269.450,@11"
---
header: 
  seq: 167679
  stamp: 
    secs: 1556602981
    nsecs: 840832000
  frame_id: "/gps"
sentence: "$GPGGA,054301.840,0.096970,N,0.081136,E,1,10,0.01,10.202080,M,0.000000,M,,*56"
---
header: 
  seq: 167680
  stamp: 
    secs: 1556602981
    nsecs: 840897024
  frame_id: "/gps"
sentence: "QQ02C,INSATT,V,054301.840,-0.153,-0.011,269.437,@1B"
---
header: 
  seq: 167681
  stamp: 
    secs: 1556602981
    nsecs: 944754176
  frame_id: "/gps"
sentence: "$GPGGA,054301.944,0.096967,N,0.080824,E,1,10,0.01,10.202080,M,0.000000,M,,*5E"
---
header: 
  seq: 167682
  stamp: 
    secs: 1556602981
    nsecs: 944819968
  frame_id: "/gps"
sentence: "QQ02C,INSATT,V,054301.944,-0.154,-0.011,269.428,@17"
---
header: 
  seq: 167683
  stamp: 
    secs: 1556602982
    nsecs:  46600192
  frame_id: "/gps"
sentence: "$GPGGA,054302.046,0.096964,N,0.080521,E,1,10,0.01,10.202080,M,0.000000,M,,*5D"
---
header: 
  seq: 167684
  stamp: 
    secs: 1556602982
    nsecs:  46664960
  frame_id: "/gps"
sentence: "QQ02C,INSATT,V,054302.046,-0.155,-0.011,269.425,@13"
---
header: 
  seq: 167685
  stamp: 
    secs: 1556602982
    nsecs: 140484096
  frame_id: "/gps"
sentence: "$GPGGA,054302.140,0.096961,N,0.080241,E,1,10,0.01,10.202080,M,0.000000,M,,*5E"
---
header: 
  seq: 167686
  stamp: 
    secs: 1556602982
    nsecs: 140550144
  frame_id: "/gps"
sentence: "QQ02C,INSATT,V,054302.140,-0.155,-0.011,269.416,@14"
---
header: 
  seq: 167687
  stamp: 
    secs: 1556602982
    nsecs: 244636928
  frame_id: "/gps"
sentence: "$GPGGA,054302.244,0.096957,N,0.079929,E,1,10,0.01,10.202080,M,0.000000,M,,*5F"
---
header: 
  seq: 167688
  stamp: 
    secs: 1556602982
    nsecs: 244711168
  frame_id: "/gps"
sentence: "QQ02C,INSATT,V,054302.244,-0.154,-0.011,269.399,@12"
---
header: 
  seq: 167689
  stamp: 
    secs: 1556602982
    nsecs: 346948864
  frame_id: "/gps"
sentence: "$GPGGA,054302.346,0.096954,N,0.079624,E,1,10,0.01,10.202080,M,0.000000,M,,*5D"
---
header: 
  seq: 167690
  stamp: 
    secs: 1556602982
    nsecs: 347014144
  frame_id: "/gps"
sentence: "QQ02C,INSATT,V,054302.346,-0.152,-0.011,269.376,@16"
---
header: 
  seq: 167691
  stamp: 
    secs: 1556602982
    nsecs: 449486080
  frame_id: "/gps"
sentence: "$GPGGA,054302.449,0.096950,N,0.079317,E,1,10,0.01,10.202080,M,0.000000,M,,*54"
---
header: 
  seq: 167692
  stamp: 
    secs: 1556602982
    nsecs: 449551104
  frame_id: "/gps"
sentence: "QQ02C,INSATT,V,054302.449,-0.153,-0.011,269.361,@19"
---
header: 
  seq: 167693
  stamp: 
    secs: 1556602982
    nsecs: 550553088
  frame_id: "/gps"
sentence: "$GPGGA,054302.550,0.096947,N,0.079015,E,1,10,0.01,10.202080,M,0.000000,M,,*5A"
---
header: 
  seq: 167694
  stamp: 
    secs: 1556602982
    nsecs: 550620160
  frame_id: "/gps"
sentence: "QQ02C,INSATT,V,054302.550,-0.155,-0.011,269.365,@12"
---
header: 
  seq: 167695
  stamp: 
    secs: 1556602982
    nsecs: 651639040
  frame_id: "/gps"
sentence: "$GPGGA,054302.651,0.096944,N,0.078713,E,1,10,0.01,10.202080,M,0.000000,M,,*5B"
---
header: 
  seq: 167696
  stamp: 
    secs: 1556602982
    nsecs: 651703040
  frame_id: "/gps"
sentence: "QQ02C,INSATT,V,054302.651,-0.160,-0.011,269.395,@19"
---
header: 
  seq: 167697
  stamp: 
    secs: 1556602982
    nsecs: 754021888
  frame_id: "/gps"
sentence: "$GPGGA,054302.753,0.096941,N,0.078408,E,1,10,0.01,10.202080,M,0.000000,M,,*54"
---
header: 
  seq: 167698
  stamp: 
    secs: 1556602982
    nsecs: 754087168
  frame_id: "/gps"
sentence: "QQ02C,INSATT,V,054302.753,-0.165,-0.011,269.448,@18"
---
header: 
  seq: 167699
  stamp: 
    secs: 1556602982
    nsecs: 854562048
  frame_id: "/gps"
sentence: "$GPGGA,054302.854,0.096939,N,0.078107,E,1,10,0.01,10.202080,M,0.000000,M,,*59"
---
header: 
  seq: 167700
  stamp: 
    secs: 1556602982
    nsecs: 854628096
  frame_id: "/gps"
sentence: "QQ02C,INSATT,V,054302.854,-0.169,-0.011,269.515,@15"
---
header: 
  seq: 167701
  stamp: 
    secs: 1556602982
    nsecs: 948921088
  frame_id: "/gps"
sentence: "$GPGGA,054302.948,0.096938,N,0.077828,E,1,10,0.01,10.202080,M,0.000000,M,,*5F"
---
header: 
  seq: 167702
  stamp: 
    secs: 1556602982
    nsecs: 948987136
  frame_id: "/gps"
sentence: "QQ02C,INSATT,V,054302.948,-0.171,-0.011,269.579,@1A"
---
header: 
  seq: 167703
  stamp: 
    secs: 1556602983
    nsecs:  51790080
  frame_id: "/gps"
sentence: "$GPGGA,054303.051,0.096936,N,0.077519,E,1,10,0.01,10.202080,M,0.000000,M,,*5E"
---
header: 
  seq: 167704
  stamp: 
    secs: 1556602983
    nsecs:  51855104
  frame_id: "/gps"
sentence: "QQ02C,INSATT,V,054303.051,-0.170,-0.011,269.636,@13"
---
header: 
  seq: 167705
  stamp: 
    secs: 1556602983
    nsecs: 152992256
  frame_id: "/gps"
sentence: "$GPGGA,054303.152,0.096935,N,0.077217,E,1,10,0.01,10.202080,M,0.000000,M,,*56"
---
header: 
  seq: 167706
  stamp: 
    secs: 1556602983
    nsecs: 153057024
  frame_id: "/gps"
sentence: "QQ02C,INSATT,V,054303.152,-0.167,-0.011,269.666,@12"
---
header: 
  seq: 167707
  stamp: 
    secs: 1556602983
    nsecs: 253041920
  frame_id: "/gps"
sentence: "$GPGGA,054303.252,0.096933,N,0.076918,E,1,10,0.01,10.202080,M,0.000000,M,,*56"
---
header: 
  seq: 167708
  stamp: 
    secs: 1556602983
    nsecs: 253104896
  frame_id: "/gps"
sentence: "QQ02C,INSATT,V,054303.252,-0.160,-0.011,269.661,@11"
---
header: 
  seq: 167709
  stamp: 
    secs: 1556602983
    nsecs: 353941248
  frame_id: "/gps"
sentence: "$GPGGA,054303.353,0.096930,N,0.076616,E,1,10,0.01,10.202080,M,0.000000,M,,*54"
---
header: 
  seq: 167710
  stamp: 
    secs: 1556602983
    nsecs: 354007040
  frame_id: "/gps"
sentence: "QQ02C,INSATT,V,054303.353,-0.153,-0.011,269.621,@15"
---
header: 
  seq: 167711
  stamp: 
    secs: 1556602983
    nsecs: 450480896
  frame_id: "/gps"
sentence: "$GPGGA,054303.450,0.096928,N,0.076330,E,1,10,0.01,10.202080,M,0.000000,M,,*58"
---
header: 
  seq: 167712
  stamp: 
    secs: 1556602983
    nsecs: 450550016
  frame_id: "/gps"
sentence: "QQ02C,INSATT,V,054303.450,-0.150,-0.011,269.592,@19"
---
header: 
  seq: 167713
  stamp: 
    secs: 1556602983
    nsecs: 531934976
  frame_id: "/gps"
sentence: "$GPGGA,054303.531,0.096926,N,0.076086,E,1,10,0.01,10.202080,M,0.000000,M,,*5E"
---
header: 
  seq: 167714
  stamp: 
    secs: 1556602983
    nsecs: 532000000
  frame_id: "/gps"
sentence: "QQ02C,INSATT,V,054303.531,-0.153,-0.011,269.596,@18"
---
header: 
  seq: 167715
  stamp: 
    secs: 1556602983
    nsecs: 611459840
  frame_id: "/gps"
sentence: "$GPGGA,054303.611,0.096925,N,0.075848,E,1,10,0.01,10.202080,M,0.000000,M,,*55"
---
header: 
  seq: 167716
  stamp: 
    secs: 1556602983
    nsecs: 611524096
  frame_id: "/gps"
sentence: "QQ02C,INSATT,V,054303.611,-0.156,-0.011,269.613,@12"
---
header: 
  seq: 167717
  stamp: 
    secs: 1556602983
    nsecs: 711520000
  frame_id: "/gps"
sentence: "$GPGGA,054303.711,0.096923,N,0.075549,E,1,10,0.01,10.202080,M,0.000000,M,,*5E"
---
header: 
  seq: 167718
  stamp: 
    secs: 1556602983
    nsecs: 711585024
  frame_id: "/gps"
sentence: "QQ02C,INSATT,V,054303.711,-0.159,-0.011,269.633,@1E"
---
header: 
  seq: 167719
  stamp: 
    secs: 1556602983
    nsecs: 800183040
  frame_id: "/gps"
sentence: "$GPGGA,054303.800,0.096922,N,0.075285,E,1,10,0.01,10.202080,M,0.000000,M,,*57"
---
header: 
  seq: 167720
  stamp: 
    secs: 1556602983
    nsecs: 800249088
  frame_id: "/gps"
sentence: "QQ02C,INSATT,V,054303.800,-0.158,-0.011,269.639,@1A"
---
header: 
  seq: 167721
  stamp: 
    secs: 1556602983
    nsecs: 906041088
  frame_id: "/gps"
sentence: "$GPGGA,054303.905,0.096919,N,0.074968,E,1,10,0.01,10.202079,M,0.000000,M,,*54"
---
header: 
  seq: 167722
  stamp: 
    secs: 1556602983
    nsecs: 906107136
  frame_id: "/gps"
sentence: "QQ02C,INSATT,V,054303.905,-0.157,-0.011,269.632,@1A"
---
header: 
  seq: 167723
  stamp: 
    secs: 1556602984
    nsecs:   7430144
  frame_id: "/gps"
sentence: "$GPGGA,054304.007,0.096917,N,0.074666,E,1,10,0.01,10.202079,M,0.000000,M,,*57"
---
header: 
  seq: 167724
  stamp: 
    secs: 1556602984
    nsecs:   7493120
  frame_id: "/gps"
sentence: "QQ02C,INSATT,V,054304.007,-0.156,-0.011,269.629,@1D"
---
header: 
  seq: 167725
  stamp: 
    secs: 1556602984
    nsecs: 110100992
  frame_id: "/gps"
sentence: "$GPGGA,054304.110,0.096915,N,0.074359,E,1,10,0.01,10.202079,M,0.000000,M,,*5B"
---
header: 
  seq: 167726
  stamp: 
    secs: 1556602984
    nsecs: 110167040
  frame_id: "/gps"
sentence: "QQ02C,INSATT,V,054304.110,-0.157,-0.011,269.633,@10"
---
header: 
  seq: 167727
  stamp: 
    secs: 1556602984
    nsecs: 210136064
  frame_id: "/gps"
sentence: "$GPGGA,054304.210,0.096914,N,0.074061,E,1,10,0.01,10.202079,M,0.000000,M,,*51"
---
header: 
  seq: 167728
  stamp: 
    secs: 1556602984
    nsecs: 210202112
  frame_id: "/gps"
sentence: "QQ02C,INSATT,V,054304.210,-0.157,-0.011,269.637,@17"
---
header: 
  seq: 167729
  stamp: 
    secs: 1556602984
    nsecs: 309989888
  frame_id: "/gps"
sentence: "$GPGGA,054304.309,0.096912,N,0.073763,E,1,10,0.01,10.202078,M,0.000000,M,,*5D"
---
header: 
  seq: 167730
  stamp: 
    secs: 1556602984
    nsecs: 310053888
  frame_id: "/gps"
sentence: "QQ02C,INSATT,V,054304.309,-0.156,-0.011,269.634,@1C"
---
header: 
  seq: 167731
  stamp: 
    secs: 1556602984
    nsecs: 410138112
  frame_id: "/gps"
sentence: "$GPGGA,054304.410,0.096910,N,0.073464,E,1,10,0.01,10.202079,M,0.000000,M,,*55"
---
header: 
  seq: 167732
  stamp: 
    secs: 1556602984
    nsecs: 410203136
  frame_id: "/gps"
sentence: "QQ02C,INSATT,V,054304.410,-0.155,-0.011,269.623,@16"
---
header: 
  seq: 167733
  stamp: 
    secs: 1556602984
    nsecs: 510769152
  frame_id: "/gps"
sentence: "$GPGGA,054304.510,0.096907,N,0.073163,E,1,10,0.01,10.202079,M,0.000000,M,,*50"
---
header: 
  seq: 167734
  stamp: 
    secs: 1556602984
    nsecs: 510836224
  frame_id: "/gps"
sentence: "QQ02C,INSATT,V,054304.510,-0.155,-0.011,269.614,@13"
---
header: 
  seq: 167735
  stamp: 
    secs: 1556602984
    nsecs: 598231040
  frame_id: "/gps"
sentence: "$GPGGA,054304.598,0.096906,N,0.072902,E,1,10,0.01,10.202079,M,0.000000,M,,*5F"
---
header: 
  seq: 167736
  stamp: 
    secs: 1556602984
    nsecs: 598296064
  frame_id: "/gps"
sentence: "QQ02C,INSATT,V,054304.598,-0.155,-0.011,269.614,@13"
---
header: 
  seq: 167737
  stamp: 
    secs: 1556602984
    nsecs: 704947968
  frame_id: "/gps"
sentence: "$GPGGA,054304.704,0.096904,N,0.072583,E,1,10,0.01,10.202079,M,0.000000,M,,*5F"
---
header: 
  seq: 167738
  stamp: 
    secs: 1556602984
    nsecs: 705013248
  frame_id: "/gps"
sentence: "QQ02C,INSATT,V,054304.704,-0.159,-0.011,269.635,@1B"
---
header: 
  seq: 167739
  stamp: 
    secs: 1556602984
    nsecs: 805691136
  frame_id: "/gps"
sentence: "$GPGGA,054304.805,0.096902,N,0.072282,E,1,10,0.01,10.202079,M,0.000000,M,,*51"
---
header: 
  seq: 167740
  stamp: 
    secs: 1556602984
    nsecs: 805757184
  frame_id: "/gps"
sentence: "QQ02C,INSATT,V,054304.805,-0.162,-0.011,269.674,@18"
---
header: 
  seq: 167741
  stamp: 
    secs: 1556602984
    nsecs: 905549056
  frame_id: "/gps"
sentence: "$GPGGA,054304.905,0.096901,N,0.071984,E,1,10,0.01,10.202079,M,0.000000,M,,*5D"
---
header: 
  seq: 167742
  stamp: 
    secs: 1556602984
    nsecs: 905613056
  frame_id: "/gps"
sentence: "QQ02C,INSATT,V,054304.905,-0.166,-0.011,269.729,@14"
---
header: 
  seq: 167743
  stamp: 
    secs: 1556602985
    nsecs:   3936000
  frame_id: "/gps"
sentence: "$GPGGA,054305.003,0.096901,N,0.071690,E,1,10,0.01,10.202079,M,0.000000,M,,*59"
---
header: 
  seq: 167744
  stamp: 
    secs: 1556602985
    nsecs:   4001024
  frame_id: "/gps"
sentence: "QQ02C,INSATT,V,054305.003,-0.169,-0.011,269.793,@14"
---
header: 
  seq: 167745
  stamp: 
    secs: 1556602985
    nsecs: 106092032
  frame_id: "/gps"
sentence: "$GPGGA,054305.106,0.096901,N,0.071385,E,1,10,0.01,10.202079,M,0.000000,M,,*5C"
---
header: 
  seq: 167746
  stamp: 
    secs: 1556602985
    nsecs: 106157056
  frame_id: "/gps"
sentence: "QQ02C,INSATT,V,054305.106,-0.170,-0.011,269.852,@1A"
---
header: 
  seq: 167747
  stamp: 
    secs: 1556602985
    nsecs: 191183104
  frame_id: "/gps"
sentence: "$GPGGA,054305.191,0.096900,N,0.071134,E,1,10,0.01,10.202079,M,0.000000,M,,*5B"
---
header: 
  seq: 167748
  stamp: 
    secs: 1556602985
    nsecs: 191255040
  frame_id: "/gps"
sentence: "QQ02C,INSATT,V,054305.191,-0.168,-0.011,269.887,@15"
---
header: 
  seq: 167749
  stamp: 
    secs: 1556602985
    nsecs: 281678080
  frame_id: "/gps"
sentence: "$GPGGA,054305.281,0.096900,N,0.070860,E,1,10,0.01,10.202079,M,0.000000,M,,*50"
---
header: 
  seq: 167750
  stamp: 
    secs: 1556602985
    nsecs: 281743104
  frame_id: "/gps"
sentence: "QQ02C,INSATT,V,054305.281,-0.165,-0.011,269.910,@15"
---
header: 
  seq: 167751
  stamp: 
    secs: 1556602985
    nsecs: 400872960
  frame_id: "/gps"
sentence: "$GPGGA,054305.400,0.096900,N,0.070505,E,1,10,0.01,10.202079,M,0.000000,M,,*51"
---
header: 
  seq: 167752
  stamp: 
    secs: 1556602985
    nsecs: 400937984
  frame_id: "/gps"
sentence: "QQ02C,INSATT,V,054305.400,-0.160,-0.011,269.915,@1A"
---
header: 
  seq: 167753
  stamp: 
    secs: 1556602985
    nsecs: 507049984
  frame_id: "/gps"
sentence: "$GPGGA,054305.506,0.096899,N,0.070188,E,1,10,0.01,10.202080,M,0.000000,M,,*50"
---
header: 
  seq: 167754
  stamp: 
    secs: 1556602985
    nsecs: 507115008
  frame_id: "/gps"
sentence: "QQ02C,INSATT,V,054305.506,-0.157,-0.011,269.913,@1F"
---
header: 
  seq: 167755
  stamp: 
    secs: 1556602985
    nsecs: 608318208
  frame_id: "/gps"
sentence: "$GPGGA,054305.608,0.096899,N,0.069886,E,1,10,0.01,10.202079,M,0.000000,M,,*54"
---
header: 
  seq: 167756
  stamp: 
    secs: 1556602985
    nsecs: 608382976
  frame_id: "/gps"
sentence: "QQ02C,INSATT,V,054305.608,-0.160,-0.011,269.941,@11"
---
header: 
  seq: 167757
  stamp: 
    secs: 1556602985
    nsecs: 710100224
  frame_id: "/gps"
sentence: "$GPGGA,054305.710,0.096900,N,0.069582,E,1,10,0.01,10.202080,M,0.000000,M,,*52"
---
header: 
  seq: 167758
  stamp: 
    secs: 1556602985
    nsecs: 710166016
  frame_id: "/gps"
sentence: "QQ02C,INSATT,V,054305.710,-0.166,-0.011,270.005,@1E"
---
header: 
  seq: 167759
  stamp: 
    secs: 1556602985
    nsecs: 809601024
  frame_id: "/gps"
sentence: "$GPGGA,054305.809,0.096900,N,0.069285,E,1,10,0.01,10.202080,M,0.000000,M,,*55"
---
header: 
  seq: 167760
  stamp: 
    secs: 1556602985
    nsecs: 809666048
  frame_id: "/gps"
sentence: "QQ02C,INSATT,V,054305.809,-0.169,-0.011,270.074,@10"
---
header: 
  seq: 167761
  stamp: 
    secs: 1556602985
    nsecs: 909441280
  frame_id: "/gps"
sentence: "$GPGGA,054305.909,0.096902,N,0.068987,E,1,10,0.01,10.202080,M,0.000000,M,,*5E"
---
header: 
  seq: 167762
  stamp: 
    secs: 1556602985
    nsecs: 909505024
  frame_id: "/gps"
sentence: "QQ02C,INSATT,V,054305.909,-0.170,-0.011,270.135,@1D"
---
header: 
  seq: 167763
  stamp: 
    secs: 1556602986
    nsecs:   7911168
  frame_id: "/gps"
sentence: "$GPGGA,054306.007,0.096903,N,0.068693,E,1,10,0.01,10.202080,M,0.000000,M,,*51"
---
header: 
  seq: 167764
  stamp: 
    secs: 1556602986
    nsecs:   7975168
  frame_id: "/gps"
sentence: "QQ02C,INSATT,V,054306.007,-0.170,-0.011,270.191,@17"
---
header: 
  seq: 167765
  stamp: 
    secs: 1556602986
    nsecs: 107612928
  frame_id: "/gps"
sentence: "$GPGGA,054306.107,0.096905,N,0.068395,E,1,10,0.01,10.202080,M,0.000000,M,,*55"
---
header: 
  seq: 167766
  stamp: 
    secs: 1556602986
    nsecs: 107677952
  frame_id: "/gps"
sentence: "QQ02C,INSATT,V,054306.107,-0.172,-0.011,270.263,@1A"
---
header: 
  seq: 167767
  stamp: 
    secs: 1556602986
    nsecs: 207253248
  frame_id: "/gps"
sentence: "$GPGGA,054306.207,0.096908,N,0.068098,E,1,10,0.01,10.202080,M,0.000000,M,,*55"
---
header: 
  seq: 167768
  stamp: 
    secs: 1556602986
    nsecs: 207319040
  frame_id: "/gps"
sentence: "QQ02C,INSATT,V,054306.207,-0.176,-0.011,270.365,@1A"
---
header: 
  seq: 167769
  stamp: 
    secs: 1556602986
    nsecs: 294163968
  frame_id: "/gps"
sentence: "$GPGGA,054306.294,0.096911,N,0.067838,E,1,10,0.01,10.202080,M,0.000000,M,,*5A"
---
header: 
  seq: 167770
  stamp: 
    secs: 1556602986
    nsecs: 294227968
  frame_id: "/gps"
sentence: "QQ02C,INSATT,V,054306.294,-0.183,-0.011,270.490,@17"
---
header: 
  seq: 167771
  stamp: 
    secs: 1556602986
    nsecs: 399277056
  frame_id: "/gps"
sentence: "$GPGGA,054306.399,0.096917,N,0.067524,E,1,10,0.01,10.202080,M,0.000000,M,,*50"
---
header: 
  seq: 167772
  stamp: 
    secs: 1556602986
    nsecs: 399342080
  frame_id: "/gps"
sentence: "QQ02C,INSATT,V,054306.399,-0.194,-0.011,270.695,@1A"
---
header: 
  seq: 167773
  stamp: 
    secs: 1556602986
    nsecs: 497125120
  frame_id: "/gps"
sentence: "$GPGGA,054306.497,0.096923,N,0.067232,E,1,10,0.01,10.202081,M,0.000000,M,,*5F"
---
header: 
  seq: 167774
  stamp: 
    secs: 1556602986
    nsecs: 497190144
  frame_id: "/gps"
sentence: "QQ02C,INSATT,V,054306.497,-0.203,-0.011,270.925,@1A"
---
header: 
  seq: 167775
  stamp: 
    secs: 1556602986
    nsecs: 596357120
  frame_id: "/gps"
sentence: "$GPGGA,054306.596,0.096931,N,0.066936,E,1,10,0.01,10.202080,M,0.000000,M,,*53"
---
header: 
  seq: 167776
  stamp: 
    secs: 1556602986
    nsecs: 596423168
  frame_id: "/gps"
sentence: "QQ02C,INSATT,V,054306.596,-0.209,-0.011,271.170,@19"
---
header: 
  seq: 167777
  stamp: 
    secs: 1556602986
    nsecs: 696935168
  frame_id: "/gps"
sentence: "$GPGGA,054306.696,0.096941,N,0.066636,E,1,10,0.01,10.202081,M,0.000000,M,,*59"
---
header: 
  seq: 167778
  stamp: 
    secs: 1556602986
    nsecs: 697000960
  frame_id: "/gps"
sentence: "QQ02C,INSATT,V,054306.696,-0.211,-0.011,271.415,@15"
---
header: 
  seq: 167779
  stamp: 
    secs: 1556602986
    nsecs: 796020992
  frame_id: "/gps"
sentence: "$GPGGA,054306.795,0.096951,N,0.066340,E,1,10,0.01,10.202080,M,0.000000,M,,*5F"
---
header: 
  seq: 167780
  stamp: 
    secs: 1556602986
    nsecs: 796087040
  frame_id: "/gps"
sentence: "QQ02C,INSATT,V,054306.795,-0.212,-0.011,271.655,@12"
---
header: 
  seq: 167781
  stamp: 
    secs: 1556602986
    nsecs: 895944192
  frame_id: "/gps"
sentence: "$GPGGA,054306.895,0.096963,N,0.066042,E,1,10,0.01,10.202080,M,0.000000,M,,*50"
---
header: 
  seq: 167782
  stamp: 
    secs: 1556602986
    nsecs: 896013056
  frame_id: "/gps"
sentence: "QQ02C,INSATT,V,054306.895,-0.211,-0.011,271.888,@10"
---
header: 
  seq: 167783
  stamp: 
    secs: 1556602986
    nsecs: 996265216
  frame_id: "/gps"
sentence: "$GPGGA,054306.996,0.096976,N,0.065742,E,1,10,0.01,10.202079,M,0.000000,M,,*54"
---
header: 
  seq: 167784
  stamp: 
    secs: 1556602986
    nsecs: 996328192
  frame_id: "/gps"
sentence: "QQ02C,INSATT,V,054306.996,-0.212,-0.012,272.141,@1D"
---
header: 
  seq: 167785
  stamp: 
    secs: 1556602987
    nsecs: 110057984
  frame_id: "/gps"
sentence: "$GPGGA,054307.109,0.096993,N,0.065403,E,1,10,0.01,10.202079,M,0.000000,M,,*56"
---
header: 
  seq: 167786
  stamp: 
    secs: 1556602987
    nsecs: 110123008
  frame_id: "/gps"
sentence: "QQ02C,INSATT,V,054307.109,-0.219,-0.012,272.479,@17"
---
header: 
  seq: 167787
  stamp: 
    secs: 1556602987
    nsecs: 215652096
  frame_id: "/gps"
sentence: "$GPGGA,054307.215,0.097012,N,0.065089,E,1,10,0.01,10.202079,M,0.000000,M,,*5F"
---
header: 
  seq: 167788
  stamp: 
    secs: 1556602987
    nsecs: 215718144
  frame_id: "/gps"
sentence: "QQ02C,INSATT,V,054307.215,-0.227,-0.012,272.834,@11"
---
header: 
  seq: 167789
  stamp: 
    secs: 1556602987
    nsecs: 316045056
  frame_id: "/gps"
sentence: "$GPGGA,054307.315,0.097032,N,0.064790,E,1,10,0.01,10.202078,M,0.000000,M,,*53"
---
header: 
  seq: 167790
  stamp: 
    secs: 1556602987
    nsecs: 316110080
  frame_id: "/gps"
sentence: "QQ02C,INSATT,V,054307.315,-0.233,-0.012,273.197,@14"
---
header: 
  seq: 167791
  stamp: 
    secs: 1556602987
    nsecs: 415865856
  frame_id: "/gps"
sentence: "$GPGGA,054307.415,0.097053,N,0.064493,E,1,10,0.01,10.202078,M,0.000000,M,,*53"
---
header: 
  seq: 167792
  stamp: 
    secs: 1556602987
    nsecs: 415932160
  frame_id: "/gps"
sentence: "QQ02C,INSATT,V,054307.415,-0.236,-0.012,273.554,@1D"
---
header: 
  seq: 167793
  stamp: 
    secs: 1556602987
    nsecs: 515031040
  frame_id: "/gps"
sentence: "$GPGGA,054307.514,0.097076,N,0.064197,E,1,10,0.01,10.202078,M,0.000000,M,,*55"
---
header: 
  seq: 167794
  stamp: 
    secs: 1556602987
    nsecs: 515096064
  frame_id: "/gps"
sentence: "QQ02C,INSATT,V,054307.514,-0.236,-0.012,273.899,@11"
---
header: 
  seq: 167795
  stamp: 
    secs: 1556602987
    nsecs: 614382080
  frame_id: "/gps"
sentence: "$GPGGA,054307.614,0.097101,N,0.063901,E,1,10,0.01,10.202078,M,0.000000,M,,*57"
---
header: 
  seq: 167796
  stamp: 
    secs: 1556602987
    nsecs: 614447104
  frame_id: "/gps"
sentence: "QQ02C,INSATT,V,054307.614,-0.233,-0.012,274.231,@18"
---
header: 
  seq: 167797
  stamp: 
    secs: 1556602987
    nsecs: 715836160
  frame_id: "/gps"
sentence: "$GPGGA,054307.715,0.097127,N,0.063600,E,1,10,0.01,10.202078,M,0.000000,M,,*5D"
---
header: 
  seq: 167798
  stamp: 
    secs: 1556602987
    nsecs: 715901184
  frame_id: "/gps"
sentence: "QQ02C,INSATT,V,054307.715,-0.230,-0.012,274.552,@19"
---
header: 
  seq: 167799
  stamp: 
    secs: 1556602987
    nsecs: 816211200
  frame_id: "/gps"
sentence: "$GPGGA,054307.816,0.097155,N,0.063302,E,1,10,0.01,10.202078,M,0.000000,M,,*53"
---
header: 
  seq: 167800
  stamp: 
    secs: 1556602987
    nsecs: 816278016
  frame_id: "/gps"
sentence: "QQ02C,INSATT,V,054307.816,-0.226,-0.012,274.852,@1F"
---
header: 
  seq: 167801
  stamp: 
    secs: 1556602987
    nsecs: 904211200
  frame_id: "/gps"
sentence: "$GPGGA,054307.904,0.097181,N,0.063040,E,1,10,0.01,10.202078,M,0.000000,M,,*5D"
---
header: 
  seq: 167802
  stamp: 
    secs: 1556602987
    nsecs: 904276992
  frame_id: "/gps"
sentence: "QQ02C,INSATT,V,054307.904,-0.222,-0.012,275.102,@14"
---
header: 
  seq: 167803
  stamp: 
    secs: 1556602987
    nsecs: 984786176
  frame_id: "/gps"
sentence: "$GPGGA,054307.984,0.097205,N,0.062799,E,1,10,0.01,10.202078,M,0.000000,M,,*58"
---
header: 
  seq: 167804
  stamp: 
    secs: 1556602987
    nsecs: 984851968
  frame_id: "/gps"
sentence: "QQ02C,INSATT,V,054307.984,-0.219,-0.012,275.324,@12"
---
header: 
  seq: 167805
  stamp: 
    secs: 1556602988
    nsecs:  85108224
  frame_id: "/gps"
sentence: "$GPGGA,054308.085,0.097236,N,0.062502,E,1,10,0.01,10.202078,M,0.000000,M,,*5F"
---
header: 
  seq: 167806
  stamp: 
    secs: 1556602988
    nsecs:  85174016
  frame_id: "/gps"
sentence: "QQ02C,INSATT,V,054308.085,-0.215,-0.012,275.581,@10"
---
header: 
  seq: 167807
  stamp: 
    secs: 1556602988
    nsecs: 187338240
  frame_id: "/gps"
sentence: "$GPGGA,054308.187,0.097269,N,0.062198,E,1,10,0.01,10.202078,M,0.000000,M,,*51"
---
header: 
  seq: 167808
  stamp: 
    secs: 1556602988
    nsecs: 187401984
  frame_id: "/gps"
sentence: "QQ02C,INSATT,V,054308.187,-0.210,-0.012,275.818,@1B"
---
header: 
  seq: 167809
  stamp: 
    secs: 1556602988
    nsecs: 286464000
  frame_id: "/gps"
sentence: "$GPGGA,054308.286,0.097302,N,0.061904,E,1,10,0.01,10.202078,M,0.000000,M,,*51"
---
header: 
  seq: 167810
  stamp: 
    secs: 1556602988
    nsecs: 286530048
  frame_id: "/gps"
sentence: "QQ02C,INSATT,V,054308.286,-0.203,-0.012,276.010,@18"
---
header: 
  seq: 167811
  stamp: 
    secs: 1556602988
    nsecs: 385399296
  frame_id: "/gps"
sentence: "$GPGGA,054308.385,0.097335,N,0.061611,E,1,10,0.01,10.202078,M,0.000000,M,,*5C"
---
header: 
  seq: 167812
  stamp: 
    secs: 1556602988
    nsecs: 385463040
  frame_id: "/gps"
sentence: "QQ02C,INSATT,V,054308.385,-0.195,-0.012,276.162,@12"
---
header: 
  seq: 167813
  stamp: 
    secs: 1556602988
    nsecs: 485218048
  frame_id: "/gps"
sentence: "$GPGGA,054308.485,0.097369,N,0.061314,E,1,10,0.01,10.202076,M,0.000000,M,,*5C"
---
header: 
  seq: 167814
  stamp: 
    secs: 1556602988
    nsecs: 485282048
  frame_id: "/gps"
sentence: "QQ02C,INSATT,V,054308.485,-0.188,-0.011,276.285,@10"
---
header: 
  seq: 167815
  stamp: 
    secs: 1556602988
    nsecs: 587522048
  frame_id: "/gps"
sentence: "$GPGGA,054308.587,0.097404,N,0.061011,E,1,10,0.01,10.202077,M,0.000000,M,,*54"
---
header: 
  seq: 167816
  stamp: 
    secs: 1556602988
    nsecs: 587589120
  frame_id: "/gps"
sentence: "QQ02C,INSATT,V,054308.587,-0.182,-0.011,276.392,@1E"
---
header: 
  seq: 167817
  stamp: 
    secs: 1556602988
    nsecs: 689425152
  frame_id: "/gps"
